[
  {
    "KEY":"6ea5dc67-7487-47f4-b7fb-b3bcbdd4fbc7",
    "LATITUDE": 51.91024645,
    "LONGITUDE":4.482313155,
    "NAME":"P_Erasmusbrug",
    "CODE":"P1",
    "TYPE":"PARKEERGARAGE"
  },
  {
    "KEY":"02c8724c-9599-4924-80f0-02827e35835b",
    "LATITUDE":51.92410235,
    "LONGITUDE":4.482054381,
    "NAME":"P_St.Jacobsplaats",
    "CODE":"P3",
    "TYPE":"PARKEERGARAGE"
  },
  {
    "KEY":"015e8c04-f64f-4a53-b5e2-56388c1e7a56",
    "LATITUDE":51.92102728,
    "LONGITUDE":4.473618335,
    "NAME":"P_Schouwburgplein",
    "CODE":"P4",
    "TYPE":"PARKEERGARAGE"
  },
  {
    "KEY":"977929e5-93e0-4249-9b8a-2928ba47747d",
    "LATITUDE":51.9106444,
    "LONGITUDE":4.470202513,
    "NAME":"P_Erasmus MC",
    "CODE":"P15",
    "TYPE":"PARKEERGARAGE"
  },
  {
    "KEY":"01c83e1f-796b-4f4f-a430-b4d581ca03b0",
    "LATITUDE":51.91353858,
    "LONGITUDE":4.471392875,
    "NAME":"P_Museumpark",
    "CODE":"P19",
    "TYPE":"PARKEERGARAGE"
  },
  {
    "KEY":"72dc5814-19a2-41a4-839d-e244aa7e4046",
    "LATITUDE":51.88467692,
    "LONGITUDE":4.566664696,
    "NAME":"P+R_Beverwaard",
    "CODE":"P37",
    "TYPE":"P_EN_R"
  },
  {
    "KEY":"142536a9-df47-433c-bd18-bc34a59881f7",
    "LATITUDE":51.92235545,
    "LONGITUDE":4.410238266,
    "NAME":"P+R_Schiedam Centrum",
    "CODE":"P35",
    "TYPE":"P_EN_R"
  },
  {
    "KEY":"3955ec92-5cbb-4dff-a71e-f6b931302b20",
    "LATITUDE":51.95669663,
    "LONGITUDE":4.460062981,
    "NAME":"P+R_Meijersplein",
    "CODE":"P34",
    "TYPE":"P_EN_R"
  },
  {
    "KEY":"b6c97fe9-8ea4-4183-8da2-d6989d535804",
    "LATITUDE":51.90843158,
    "LONGITUDE":4.372386932,
    "NAME":"P+R Vijfsluizen",
    "CODE":"P40",
    "TYPE":"P_EN_R"
  },
  {
    "KEY":"c97bc20e-be85-4162-8bca-85c91f588b0b",
    "LATITUDE":51.9229085,
    "LONGITUDE":4.474601678,
    "NAME":"P_Weena",
    "CODE":"P8",
    "TYPE":"PARKEERGARAGE"
  },
  {
    "KEY":"75c551cb-f33b-4760-ab95-7e06da91fa9d",
    "LATITUDE":51.92277892,
    "LONGITUDE":4.472594261,
    "NAME":"P_Plaza/Casino",
    "CODE":"P14",
    "TYPE":"PARKEERGARAGE"
  },
  {
    "KEY":"3eb4f4bd-55cd-46cc-8b0a-3a3c31559e4f",
    "LATITUDE": 51.9231296,
    "LONGITUDE": 4.476483464,
    "NAME":"P_Kruiskade",
    "CODE":"P9",
    "TYPE":"PARKEERGARAGE"
  },
  {
    "KEY":"6a1f13d4-4ce4-4cf6-b6b2-eee73970cbb2",
    "LATITUDE":51.91626759,
    "LONGITUDE":4.47776556,
    "NAME":"P_Westblaak",
    "CODE":"P10",
    "TYPE":"PARKEERGARAGE"
  },
  {
    "KEY":"6ee32956-fa28-44f8-b00b-6ae43ef91f11",
    "LATITUDE":51.91851424,
    "LONGITUDE":4.476982355,
    "NAME":"P_Lijnbaan",
    "CODE":"P7",
    "TYPE":"PARKEERGARAGE"
  },
  {
    "KEY":"97faf6ca-810d-4cf3-bddb-aebeea08ac3b",
    "LATITUDE":51.92052918,
    "LONGITUDE":4.478473663,
    "NAME":"P_Bijenkorf",
    "CODE":"P13",
    "TYPE":"PARKEERGARAGE"
  },
  {
    "KEY":"f0de9baa-2f9c-4040-a9b7-d26d43e3abeb",
    "LATITUDE":51.9196094,
    "LONGITUDE":4.481585026,
    "NAME":"P_Beursplein",
    "CODE":"P16",
    "TYPE":"PARKEERGARAGE"
  },
  {
    "KEY":"cc8ebb63-0ac5-4a7d-ad10-497c5e13ca10",
    "LATITUDE":51.92145555,
    "LONGITUDE":4.482057095,
    "NAME":"P_WTC-V&D",
    "CODE":"P12",
    "TYPE":"PARKEERGARAGE"
  },
  {
    "KEY":"68b45fa2-b4bd-45e1-a6f5-7c3e227deb1f",
    "LATITUDE":51.92029758,
    "LONGITUDE":4.49352622,
    "NAME":"P_Oude Haven",
    "CODE":"P5",
    "TYPE":"PARKEERGARAGE"
  },
  {
    "KEY":"3fc93135-c5f5-4518-af8b-7f4370c8096a",
    "LATITUDE":51.92095267,
    "LONGITUDE":4.531731606,
    "NAME":"P+R Kralingse Zoom",
    "CODE":"P42",
    "TYPE":"P_EN_R"
  },
  {
    "KEY":"07ff47c3-0d69-4ec2-8938-629ae6324544",
    "LATITUDE":51.91393811,
    "LONGITUDE":4.485533237,
    "NAME":"P_Boompjes",
    "CODE":"P18",
    "TYPE":"PARKEERGARAGE"
  },
  {
    "KEY":"0fb60d7c-e259-4633-9151-6538d0959f22",
    "LATITUDE":51.90454284,
    "LONGITUDE":4.484369159,
    "NAME":"P_World Port Center",
    "CODE":"P17",
    "TYPE":"PARKEERGARAGE"
  },
  {
    "KEY":"e630c568-7580-4186-8b74-4305bb31e658",
    "LATITUDE":51.88711387,
    "LONGITUDE":4.491305351,
    "NAME":"P_Zuidplein",
    "CODE":"P31",
    "TYPE":"PARKEERGARAGE"
  },
  {
    "KEY":"ea1fd47f-9a12-4cde-9595-722f05810a19",
    "LATITUDE":51.88270342,
    "LONGITUDE":4.490425587,
    "NAME":"P_Ahoy",
    "CODE":"P33",
    "TYPE":"PARKEERTERREIN"
  },
  {
    "KEY":"5c3e2488-32bb-4b8b-ae1a-aa8df333cfba",
    "LATITUDE":51.87298036,
    "LONGITUDE":4.47684288,
    "NAME":"P+R_Slinge benedendek",
    "CODE":"P30",
    "TYPE":"P_EN_R"
  },
  {
    "KEY":"6cc2b5a0-60a8-49ba-852f-99b2e183ee28",
    "LATITUDE":51.87333805,
    "LONGITUDE":4.476928711,
    "NAME":"P+R Slinge bovendek",
    "CODE":"P301",
    "TYPE":"P_EN_R"
  },
  {
    "KEY":"eaf9c632-e937-49c5-895e-4d6659984165",
    "LATITUDE":51.9528749,
    "LONGITUDE":4.550077915,
    "NAME":"P+R_Alexander",
    "CODE":"P36",
    "TYPE":"P_EN_R"
  },
  {
    "KEY":"a2abb8f5-8993-4a7d-af1c-62665f095172",
    "LATITUDE":51.92185936,
    "LONGITUDE":4.491214995,
    "NAME":"P_Kiphof",
    "CODE":"P2",
    "TYPE":"PARKEERGARAGE"
  },
  {
    "KEY":"4a97b519-fb39-46d0-b924-ef39e239b16f",
    "LATITUDE":51.92091875,
    "LONGITUDE":4.481122793,
    "NAME":"P_Beurs-WTC",
    "CODE":"P11",
    "TYPE":"PARKEERGARAGE"
  },
  {
    "KEY":"e6af05c5-e3c4-4a59-b893-8e14edce96e1",
    "LATITUDE":51.92043654,
    "LONGITUDE":4.558575153,
    "NAME":"P+R Capelsebrug",
    "CODE":"P41",
    "TYPE":"P_EN_R"
  },
  {
    "KEY":"7a054aa9-8b53-40fc-a0e1-d9791c7b1dc4",
    "LATITUDE":51.89486754,
    "LONGITUDE":4.534789324,
    "NAME":"P+R Noorderhelling",
    "CODE":"P43",
    "TYPE":"P_EN_R"
  }
]